[
  {"name": "Delhi", "state": "Delhi", "lat": 28.6139, "lng": 77.2090, "population_millions": 32.9},
  {"name": "Mumbai", "state": "Maharashtra", "lat": 19.0760, "lng": 72.8777, "population_millions": 20.7},
  {"name": "Bengaluru", "state": "Karnataka", "lat": 12.9716, "lng": 77.5946, "population_millions": 13.6},
  {"name": "Hyderabad", "state": "Telangana", "lat": 17.3850, "lng": 78.4867, "population_millions": 10.3},
  {"name": "Chennai", "state": "Tamil Nadu", "lat": 13.0827, "lng": 80.2707, "population_millions": 10.9},
  {"name": "Kolkata", "state": "West Bengal", "lat": 22.5726, "lng": 88.3639, "population_millions": 14.8},
  {"name": "Pune", "state": "Maharashtra", "lat": 18.5204, "lng": 73.8567, "population_millions": 7.4},
  {"name": "Ahmedabad", "state": "Gujarat", "lat": 23.0225, "lng": 72.5714, "population_millions": 8.4},
  {"name": "Jaipur", "state": "Rajasthan", "lat": 26.9124, "lng": 75.7873, "population_millions": 3.9},
  {"name": "Lucknow", "state": "Uttar Pradesh", "lat": 26.8467, "lng": 80.9462, "population_millions": 3.6},
  {"name": "Surat", "state": "Gujarat", "lat": 21.1702, "lng": 72.8311, "population_millions": 6.5},
  {"name": "Patna", "state": "Bihar", "lat": 25.5941, "lng": 85.1376, "population_millions": 2.2},
  {"name": "Bhopal", "state": "Madhya Pradesh", "lat": 23.2599, "lng": 77.4126, "population_millions": 2.4},
  {"name": "Nagpur", "state": "Maharashtra", "lat": 21.1458, "lng": 79.0882, "population_millions": 2.9},
  {"name": "Chandigarh", "state": "Punjab/Haryana", "lat": 30.7333, "lng": 76.7794, "population_millions": 1.1}
]
